{
	"dataset": [
		{"hours": "0-3", "leak": "yes", "discomfort": "yes", "flow": "decrease", "activity": "low", "label": "same" },
		{"hours": "0-3", "leak": "yes", "discomfort": "yes", "flow": "decrease", "activity": "moderate", "label": "increase" },
		{"hours": "0-3", "leak": "yes", "discomfort": "yes", "flow": "decrease", "activity": "high", "label": "increase" },
		{"hours": "0-3", "leak": "yes", "discomfort": "yes", "flow": "decrease", "activity": "sleep", "label": "increase" },
		{"hours": "0-3", "leak": "yes", "discomfort": "yes", "flow": "same", "activity": "low", "label": "increase" },
		{"hours": "0-3", "leak": "yes", "discomfort": "yes", "flow": "same", "activity": "moderate", "label": "increase" },
		{"hours": "0-3", "leak": "yes", "discomfort": "yes", "flow": "same", "activity": "high", "label": "increase" },
		{"hours": "0-3", "leak": "yes", "discomfort": "yes", "flow": "same", "activity": "sleep", "label": "increase" },
		{"hours": "0-3", "leak": "yes", "discomfort": "yes", "flow": "increase", "activity": "low", "label": "increase" },
		{"hours": "0-3", "leak": "yes", "discomfort": "yes", "flow": "increase", "activity": "moderate", "label": "increase" },
		{"hours": "0-3", "leak": "yes", "discomfort": "yes", "flow": "increase", "activity": "high", "label": "increase" },
		{"hours": "0-3", "leak": "yes", "discomfort": "yes", "flow": "increase", "activity": "sleep", "label": "increase" },
		{"hours": ">3", "leak": "yes", "discomfort": "yes", "flow": "decrease", "activity": "low", "label": "less" },
		{"hours": ">3", "leak": "yes", "discomfort": "yes", "flow": "decrease", "activity": "moderate", "label": "less" },
		{"hours": ">3", "leak": "yes", "discomfort": "yes", "flow": "decrease", "activity": "high", "label": "increase" },
		{"hours": ">3", "leak": "yes", "discomfort": "yes", "flow": "decrease", "activity": "sleep", "label": "increase" },
		{"hours": ">3", "leak": "yes", "discomfort": "yes", "flow": "same", "activity": "low", "label": "less" },
		{"hours": ">3", "leak": "yes", "discomfort": "yes", "flow": "same", "activity": "moderate", "label": "less" },
		{"hours": ">3", "leak": "yes", "discomfort": "yes", "flow": "same", "activity": "high", "label": "increase" },
		{"hours": ">3", "leak": "yes", "discomfort": "yes", "flow": "same", "activity": "sleep", "label": "increase" },
		{"hours": ">3", "leak": "yes", "discomfort": "yes", "flow": "increase", "activity": "low", "label": "increase" },
		{"hours": ">3", "leak": "yes", "discomfort": "yes", "flow": "increase", "activity": "moderate", "label": "increase" },
		{"hours": ">3", "leak": "yes", "discomfort": "yes", "flow": "increase", "activity": "high", "label": "increase" },
		{"hours": ">3", "leak": "yes", "discomfort": "yes", "flow": "increase", "activity": "sleep", "label": "increase" },
		{"hours": "0-3", "leak": "yes", "discomfort": "no", "flow": "decrease", "activity": "low", "label": "same" },
		{"hours": "0-3", "leak": "yes", "discomfort": "no", "flow": "decrease", "activity": "moderate", "label": "same" },
		{"hours": "0-3", "leak": "yes", "discomfort": "no", "flow": "decrease", "activity": "high", "label": "increase" },
		{"hours": "0-3", "leak": "yes", "discomfort": "no", "flow": "decrease", "activity": "sleep", "label": "increase" },
		{"hours": "0-3", "leak": "yes", "discomfort": "no", "flow": "same", "activity": "low", "label": "increase" },
		{"hours": "0-3", "leak": "yes", "discomfort": "no", "flow": "same", "activity": "moderate", "label": "increase" },
		{"hours": "0-3", "leak": "yes", "discomfort": "no", "flow": "same", "activity": "high", "label": "increase" },
		{"hours": "0-3", "leak": "yes", "discomfort": "no", "flow": "same", "activity": "sleep", "label": "increase" },
		{"hours": "0-3", "leak": "yes", "discomfort": "no", "flow": "increase", "activity": "low", "label": "increase" },
		{"hours": "0-3", "leak": "yes", "discomfort": "no", "flow": "increase", "activity": "moderate", "label": "increase" },
		{"hours": "0-3", "leak": "yes", "discomfort": "no", "flow": "increase", "activity": "high", "label": "increase" },
		{"hours": "0-3", "leak": "yes", "discomfort": "no", "flow": "increase", "activity": "sleep", "label": "increase" },
		{"hours": ">3", "leak": "yes", "discomfort": "no", "flow": "decrease", "activity": "low", "label": "less" },
		{"hours": ">3", "leak": "yes", "discomfort": "no", "flow": "decrease", "activity": "moderate", "label": "less" },
		{"hours": ">3", "leak": "yes", "discomfort": "no", "flow": "decrease", "activity": "high", "label": "increase" },
		{"hours": ">3", "leak": "yes", "discomfort": "no", "flow": "decrease", "activity": "sleep", "label": "increase" },
		{"hours": ">3", "leak": "yes", "discomfort": "no", "flow": "same", "activity": "low", "label": "less" },
		{"hours": ">3", "leak": "yes", "discomfort": "no", "flow": "same", "activity": "moderate", "label": "less" },
		{"hours": ">3", "leak": "yes", "discomfort": "no", "flow": "same", "activity": "high", "label": "increase" },
		{"hours": ">3", "leak": "yes", "discomfort": "no", "flow": "same", "activity": "sleep", "label": "increase" },
		{"hours": ">3", "leak": "yes", "discomfort": "no", "flow": "increase", "activity": "low", "label": "increase" },
		{"hours": ">3", "leak": "yes", "discomfort": "no", "flow": "increase", "activity": "moderate", "label": "increase" },
		{"hours": ">3", "leak": "yes", "discomfort": "no", "flow": "increase", "activity": "high", "label": "increase" },
		{"hours": ">3", "leak": "yes", "discomfort": "no", "flow": "increase", "activity": "sleep", "label": "increase" },
		{"hours": "0-3", "leak": "no", "discomfort": "yes", "flow": "decrease", "activity": "low", "label": "decrease" },
		{"hours": "0-3", "leak": "no", "discomfort": "yes", "flow": "decrease", "activity": "moderate", "label": "decrease" },
		{"hours": "0-3", "leak": "no", "discomfort": "yes", "flow": "decrease", "activity": "high", "label": "same" },
		{"hours": "0-3", "leak": "no", "discomfort": "yes", "flow": "decrease", "activity": "sleep", "label": "same" },
		{"hours": "0-3", "leak": "no", "discomfort": "yes", "flow": "same", "activity": "low", "label": "decrease" },
		{"hours": "0-3", "leak": "no", "discomfort": "yes", "flow": "same", "activity": "moderate", "label": "longer" },
		{"hours": "0-3", "leak": "no", "discomfort": "yes", "flow": "same", "activity": "high", "label": "longer" },
		{"hours": "0-3", "leak": "no", "discomfort": "yes", "flow": "same", "activity": "sleep", "label": "longer" },
		{"hours": "0-3", "leak": "no", "discomfort": "yes", "flow": "increase", "activity": "low", "label": "decrease" },
		{"hours": "0-3", "leak": "no", "discomfort": "yes", "flow": "increase", "activity": "moderate", "label": "longer" },
		{"hours": "0-3", "leak": "no", "discomfort": "yes", "flow": "increase", "activity": "high", "label": "longer" },
		{"hours": "0-3", "leak": "no", "discomfort": "yes", "flow": "increase", "activity": "sleep", "label": "longer" },
		{"hours": ">3", "leak": "no", "discomfort": "yes", "flow": "decrease", "activity": "low", "label": "decrease" },
		{"hours": ">3", "leak": "no", "discomfort": "yes", "flow": "decrease", "activity": "moderate", "label": "decrease" },
		{"hours": ">3", "leak": "no", "discomfort": "yes", "flow": "decrease", "activity": "high", "label": "same" },
		{"hours": ">3", "leak": "no", "discomfort": "yes", "flow": "decrease", "activity": "sleep", "label": "same" },
		{"hours": ">3", "leak": "no", "discomfort": "yes", "flow": "same", "activity": "low", "label": "decrease" },
		{"hours": ">3", "leak": "no", "discomfort": "yes", "flow": "same", "activity": "moderate", "label": "decrease" },
		{"hours": ">3", "leak": "no", "discomfort": "yes", "flow": "same", "activity": "high", "label": "same" },
		{"hours": ">3", "leak": "no", "discomfort": "yes", "flow": "same", "activity": "sleep", "label": "same" },
		{"hours": ">3", "leak": "no", "discomfort": "yes", "flow": "increase", "activity": "low", "label": "same" },
		{"hours": ">3", "leak": "no", "discomfort": "yes", "flow": "increase", "activity": "moderate", "label": "same" },
		{"hours": ">3", "leak": "no", "discomfort": "yes", "flow": "increase", "activity": "high", "label": "same" },
		{"hours": ">3", "leak": "no", "discomfort": "yes", "flow": "increase", "activity": "sleep", "label": "same" },
		{"hours": "0-3", "leak": "no", "discomfort": "no", "flow": "decrease", "activity": "low", "label": "decrease" },
		{"hours": "0-3", "leak": "no", "discomfort": "no", "flow": "decrease", "activity": "moderate", "label": "same" },
		{"hours": "0-3", "leak": "no", "discomfort": "no", "flow": "decrease", "activity": "high", "label": "same" },
		{"hours": "0-3", "leak": "no", "discomfort": "no", "flow": "decrease", "activity": "sleep", "label": "same" },
		{"hours": "0-3", "leak": "no", "discomfort": "no", "flow": "same", "activity": "low", "label": "same" },
		{"hours": "0-3", "leak": "no", "discomfort": "no", "flow": "same", "activity": "moderate", "label": "same" },
		{"hours": "0-3", "leak": "no", "discomfort": "no", "flow": "same", "activity": "high", "label": "same" },
		{"hours": "0-3", "leak": "no", "discomfort": "no", "flow": "same", "activity": "sleep", "label": "same" },
		{"hours": "0-3", "leak": "no", "discomfort": "no", "flow": "increase", "activity": "low", "label": "same" },
		{"hours": "0-3", "leak": "no", "discomfort": "no", "flow": "increase", "activity": "moderate", "label": "same" },
		{"hours": "0-3", "leak": "no", "discomfort": "no", "flow": "increase", "activity": "high", "label": "increase" },
		{"hours": "0-3", "leak": "no", "discomfort": "no", "flow": "increase", "activity": "sleep", "label": "increase" },
		{"hours": ">3", "leak": "no", "discomfort": "no", "flow": "decrease", "activity": "low", "label": "decrease" },
		{"hours": ">3", "leak": "no", "discomfort": "no", "flow": "decrease", "activity": "moderate", "label": "same" },
		{"hours": ">3", "leak": "no", "discomfort": "no", "flow": "decrease", "activity": "high", "label": "same" },
		{"hours": ">3", "leak": "no", "discomfort": "no", "flow": "decrease", "activity": "sleep", "label": "same" },
		{"hours": ">3", "leak": "no", "discomfort": "no", "flow": "same", "activity": "low", "label": "same" },
		{"hours": ">3", "leak": "no", "discomfort": "no", "flow": "same", "activity": "moderate", "label": "same" },
		{"hours": ">3", "leak": "no", "discomfort": "no", "flow": "same", "activity": "high", "label": "same" },
		{"hours": ">3", "leak": "no", "discomfort": "no", "flow": "same", "activity": "sleep", "label": "same" },
		{"hours": ">3", "leak": "no", "discomfort": "no", "flow": "increase", "activity": "low", "label": "same" },
		{"hours": ">3", "leak": "no", "discomfort": "no", "flow": "increase", "activity": "moderate", "label": "same" },
		{"hours": ">3", "leak": "no", "discomfort": "no", "flow": "increase", "activity": "high", "label": "increase" },
		{"hours": ">3", "leak": "no", "discomfort": "no", "flow": "increase", "activity": "sleep", "label": "increase" }
	],
	"fields": [
		{
			"name": "hours",
			"type": "STRING"
		},
		{
			"name": "leak",
			"type": "STRING"
		},
		{
			"name": "discomfort",
			"type": "STRING"
		},
		{
			"name": "flow",
			"type": "STRING"
		},
		{
			"name": "activity",
			"type": "STRING"
		},
		{
			"name": "label",
			"type": "STRING"
		}
	]
}